[
    {
        "icao": "KJFK",
        "iata": "JFK",
        "name": "John F. Kennedy International Airport",
        "city": "New York",
        "state": "New York",
        "country": "United States",
        "lat": 40.6399,
        "lon": -73.7787,
        "elevation": 13
    },
    {
        "icao": "KLAX",
        "iata": "LAX",
        "name": "Los Angeles International Airport",
        "city": "Los Angeles",
        "state": "California",
        "country": "United States",
        "lat": 33.9416,
        "lon": -118.4085,
        "elevation": 125
    },
    {
        "icao": "KORD",
        "iata": "ORD",
        "name": "Chicago O'Hare International Airport",
        "city": "Chicago",
        "state": "Illinois",
        "country": "United States",
        "lat": 41.9796,
        "lon": -87.9045,
        "elevation": 672
    },
    {
        "icao": "KDFW",
        "iata": "DFW",
        "name": "Dallas/Fort Worth International Airport",
        "city": "Dallas",
        "state": "Texas",
        "country": "United States",
        "lat": 32.8968,
        "lon": -97.0380,
        "elevation": 607
    },
    {
        "icao": "KATL",
        "iata": "ATL",
        "name": "Hartsfield-Jackson Atlanta International Airport",
        "city": "Atlanta",
        "state": "Georgia",
        "country": "United States",
        "lat": 33.6367,
        "lon": -84.4281,
        "elevation": 1026
    },
    {
        "icao": "KDEN",
        "iata": "DEN",
        "name": "Denver International Airport",
        "city": "Denver",
        "state": "Colorado",
        "country": "United States",
        "lat": 39.8561,
        "lon": -104.6737,
        "elevation": 5431
    },
    {
        "icao": "KSEA",
        "iata": "SEA",
        "name": "Seattle-Tacoma International Airport",
        "city": "Seattle",
        "state": "Washington",
        "country": "United States",
        "lat": 47.4502,
        "lon": -122.3088,
        "elevation": 433
    },
    {
        "icao": "KSFO",
        "iata": "SFO",
        "name": "San Francisco International Airport",
        "city": "San Francisco",
        "state": "California",
        "country": "United States",
        "lat": 37.6188,
        "lon": -122.3750,
        "elevation": 13
    },
    {
        "icao": "KMIA",
        "iata": "MIA",
        "name": "Miami International Airport",
        "city": "Miami",
        "state": "Florida",
        "country": "United States",
        "lat": 25.7932,
        "lon": -80.2906,
        "elevation": 8
    },
    {
        "icao": "KBOS",
        "iata": "BOS",
        "name": "Boston Logan International Airport",
        "city": "Boston",
        "state": "Massachusetts",
        "country": "United States",
        "lat": 42.3656,
        "lon": -71.0096,
        "elevation": 20
    },
    {
        "icao": "KEWR",
        "iata": "EWR",
        "name": "Newark Liberty International Airport",
        "city": "Newark",
        "state": "New Jersey",
        "country": "United States",
        "lat": 40.6925,
        "lon": -74.1687,
        "elevation": 18
    },
    {
        "icao": "KPHX",
        "iata": "PHX",
        "name": "Phoenix Sky Harbor International Airport",
        "city": "Phoenix",
        "state": "Arizona",
        "country": "United States",
        "lat": 33.4342,
        "lon": -112.0080,
        "elevation": 1135
    },
    {
        "icao": "KLAS",
        "iata": "LAS",
        "name": "Harry Reid International Airport",
        "city": "Las Vegas",
        "state": "Nevada",
        "country": "United States",
        "lat": 36.0840,
        "lon": -115.1537,
        "elevation": 2181
    },
    {
        "icao": "KIAD",
        "iata": "IAD",
        "name": "Washington Dulles International Airport",
        "city": "Washington",
        "state": "District of Columbia",
        "country": "United States",
        "lat": 38.9445,
        "lon": -77.4558,
        "elevation": 312
    },
    {
        "icao": "KIAH",
        "iata": "IAH",
        "name": "George Bush Intercontinental Airport",
        "city": "Houston",
        "state": "Texas",
        "country": "United States",
        "lat": 29.9844,
        "lon": -95.3414,
        "elevation": 97
    },
    {
        "icao": "KMSP",
        "iata": "MSP",
        "name": "Minneapolis-Saint Paul International Airport",
        "city": "Minneapolis",
        "state": "Minnesota",
        "country": "United States",
        "lat": 44.8848,
        "lon": -93.2223,
        "elevation": 841
    },
    {
        "icao": "KPHL",
        "iata": "PHL",
        "name": "Philadelphia International Airport",
        "city": "Philadelphia",
        "state": "Pennsylvania",
        "country": "United States",
        "lat": 39.8719,
        "lon": -75.2411,
        "elevation": 36
    },
    {
        "icao": "KCLT",
        "iata": "CLT",
        "name": "Charlotte Douglas International Airport",
        "city": "Charlotte",
        "state": "North Carolina",
        "country": "United States",
        "lat": 35.2140,
        "lon": -80.9431,
        "elevation": 748
    },
    {
        "icao": "KMCO",
        "iata": "MCO",
        "name": "Orlando International Airport",
        "city": "Orlando",
        "state": "Florida",
        "country": "United States",
        "lat": 28.4294,
        "lon": -81.3089,
        "elevation": 96
    },
    {
        "icao": "KSFO",
        "iata": "SFO",
        "name": "San Francisco International Airport",
        "city": "San Francisco",
        "state": "California",
        "country": "United States",
        "lat": 37.6188,
        "lon": -122.3750,
        "elevation": 13
    },
    {
        "icao": "KSLC",
        "iata": "SLC",
        "name": "Salt Lake City International Airport",
        "city": "Salt Lake City",
        "state": "Utah",
        "country": "United States",
        "lat": 40.7884,
        "lon": -111.9778,
        "elevation": 4227
    },
    {
        "icao": "KSAN",
        "iata": "SAN",
        "name": "San Diego International Airport",
        "city": "San Diego",
        "state": "California",
        "country": "United States",
        "lat": 32.7336,
        "lon": -117.1897,
        "elevation": 17
    },
    {
        "icao": "KDCA",
        "iata": "DCA",
        "name": "Ronald Reagan Washington National Airport",
        "city": "Washington",
        "state": "District of Columbia",
        "country": "United States",
        "lat": 38.8512,
        "lon": -77.0402,
        "elevation": 15
    },
    {
        "icao": "KTPA",
        "iata": "TPA",
        "name": "Tampa International Airport",
        "city": "Tampa",
        "state": "Florida",
        "country": "United States",
        "lat": 27.9755,
        "lon": -82.5332,
        "elevation": 26
    },
    {
        "icao": "KPDX",
        "iata": "PDX",
        "name": "Portland International Airport",
        "city": "Portland",
        "state": "Oregon",
        "country": "United States",
        "lat": 45.5887,
        "lon": -122.5968,
        "elevation": 30
    },
    {
        "icao": "KBNA",
        "iata": "BNA",
        "name": "Nashville International Airport",
        "city": "Nashville",
        "state": "Tennessee",
        "country": "United States",
        "lat": 36.1245,
        "lon": -86.6782,
        "elevation": 599
    },
    {
        "icao": "KHPN",
        "iata": "HPN",
        "name": "Westchester County Airport",
        "city": "White Plains",
        "state": "New York",
        "country": "United States",
        "lat": 41.0670,
        "lon": -73.7076,
        "elevation": 439
    },
    {
        "icao": "KASE",
        "iata": "ASE",
        "name": "Aspen-Pitkin County Airport",
        "city": "Aspen",
        "state": "Colorado",
        "country": "United States",
        "lat": 39.2232,
        "lon": -106.8685,
        "elevation": 7820
    },
    {
        "icao": "KTEB",
        "iata": "TEB",
        "name": "Teterboro Airport",
        "city": "Teterboro",
        "state": "New Jersey",
        "country": "United States",
        "lat": 40.8499,
        "lon": -74.0609,
        "elevation": 9
    },
    {
        "icao": "EGLL",
        "iata": "LHR",
        "name": "London Heathrow Airport",
        "city": "London",
        "state": "",
        "country": "United Kingdom",
        "lat": 51.4700,
        "lon": -0.4543,
        "elevation": 83
    },
    {
        "icao": "LFPG",
        "iata": "CDG",
        "name": "Paris Charles de Gaulle Airport",
        "city": "Paris",
        "state": "",
        "country": "France",
        "lat": 49.0097,
        "lon": 2.5479,
        "elevation": 392
    },
    {
        "icao": "EDDF",
        "iata": "FRA",
        "name": "Frankfurt Airport",
        "city": "Frankfurt",
        "state": "",
        "country": "Germany",
        "lat": 50.0379,
        "lon": 8.5622,
        "elevation": 364
    },
    {
        "icao": "EHAM",
        "iata": "AMS",
        "name": "Amsterdam Schiphol Airport",
        "city": "Amsterdam",
        "state": "",
        "country": "Netherlands",
        "lat": 52.3086,
        "lon": 4.7639,
        "elevation": -11
    },
    {
        "icao": "LIRF",
        "iata": "FCO",
        "name": "Leonardo da Vinci International Airport",
        "city": "Rome",
        "state": "",
        "country": "Italy",
        "lat": 41.8045,
        "lon": 12.2508,
        "elevation": 14
    },
    {
        "icao": "LEMD",
        "iata": "MAD",
        "name": "Adolfo Suárez Madrid–Barajas Airport",
        "city": "Madrid",
        "state": "",
        "country": "Spain",
        "lat": 40.4983,
        "lon": -3.5676,
        "elevation": 2000
    },
    {
        "icao": "LSZH",
        "iata": "ZRH",
        "name": "Zurich Airport",
        "city": "Zurich",
        "state": "",
        "country": "Switzerland",
        "lat": 47.4647,
        "lon": 8.5492,
        "elevation": 1417
    },
    {
        "icao": "LOWW",
        "iata": "VIE",
        "name": "Vienna International Airport",
        "city": "Vienna",
        "state": "",
        "country": "Austria",
        "lat": 48.1103,
        "lon": 16.5697,
        "elevation": 600
    },
    {
        "icao": "EDDM",
        "iata": "MUC",
        "name": "Munich Airport",
        "city": "Munich",
        "state": "",
        "country": "Germany",
        "lat": 48.3537,
        "lon": 11.7860,
        "elevation": 1487
    },
    {
        "icao": "LEBL",
        "iata": "BCN",
        "name": "Barcelona–El Prat Airport",
        "city": "Barcelona",
        "state": "",
        "country": "Spain",
        "lat": 41.2971,
        "lon": 2.0785,
        "elevation": 12
    }
]